{"pageProps":{"villages":[{"lon":"120.8153235","province":"Cavite","barangay":"Casta�os Lejos","association":"Bailen Coffee Growers Association","lat":"14.164638","municipality":"General Emilio Aguinaldo "},{"province":"Cavite","lon":"120.7996074","municipality":"General Emilio Aguinaldo ","barangay":"Batas Dao","association":"Batas Dao ARB Association Inc.","lat":"14.210074"},{"lon":"120.7588","lat":"14.2399112","province":"Cavite","association":"Samahan ng Magsasaka sa Barangay Layong Mabilog","barangay":"Layong Mabilog","municipality":"Maragondon"},{"municipality":"Calauan","association":"Imok ARC Women and Farmers MPC Inc.","barangay":"Imok","lat":"14.121292","lon":"121.304675","province":"Laguna"},{"association":"Macatar Binatlagan CIS Irrigators Association and Corporation","lon":"120.7991328","province":"Laguna","municipality":"Siniloan","barangay":"Macatad","lat":"14.2109749"},{"province":"Batangas","lon":"121.373317","municipality":"San Juan","lat":"13.6675484","barangay":"Hugom","association":"Matatag na Kababaihan Ckuster Level Association"},{"barangay":"Sampiro","lon":"121.376612","municipality":"San Juan","lat":"13.781925","association":"Almegatro Water Users Association","province":"Batangas"},{"municipality":"Lobo","lat":"13.67094","barangay":"Nagtaluntong","association":"Nagtaluntong Irrigators Association","lon":"121.242538","province":"Batangas"},{"lat":"13.805752","province":"Batangas","association":"Masaganang Magsasaka ng Barangay Talahiban 1st at Talahiban 2nd","lon":"121.388729","barangay":"Talahiban 1.0","municipality":"San Juan"},{"lon":"121.3928535","association":"Masaganang Magsasaka ng Barangay Talahiban 1st at Talahiban 2nd","barangay":"Talahiban 2.0","lat":"13.8088618","municipality":"San Juan","province":"Batangas"},{"barangay":"Calawis","lat":"14.671663","municipality":"Antipolo City","lon":"121.241827","province":"Rizal","association":"Tulungan Sa Kababaihan ng Calawis/Calawis Punlaang Bayan Inc./Apia United Farmers Association Inc./Calawis Agricultral Cooperative/Bunsuran Calawis Womens�s League"},{"association":"Marikina Watershed Kaysakat Association Inc.\nSan Joseph Free Farmers Association Inc.\nSan Joseph Punlaang Bayan Agro-Rainforest Association Inc.","lat":"14.6544986","lon":"121.2775434","municipality":"Antipolo City","province":"Rizal","barangay":"San Jose"},{"lat":"14.568994","barangay":"Dalig","association":"Pambayang Pederasyon ng Samahan ng mga Magsasaka ng Teresa (Cluster Association)","lon":"121.220311","municipality":"Teresa","province":"Rizal"},{"barangay":"Gapas","lon":"122.3795","lat":"13.9555","province":"Quezon","municipality":"Guinayangan","association":"Gapas Farmers Association"},{"province":"Quezon","lon":"122.41144","municipality":"Guinayangan","lat":"13.9181","barangay":"Magsaysay","association":"Magsaysay Farmers Association"},{"barangay":"Himbubulo Weste","lon":"122.4617","province":"Quezon","lat":"13.8821","association":"Himbubulo. Weste Farmers Association","municipality":"Guinayangan"},{"municipality":"Guinayangan","barangay":"Calimpak","lat":"13.900844","province":"Quezon","lon":"122.451375","association":"Guinayangan Native Chicken Raiser Association"},{"lon":"122.263155","barangay":"Villa Hermosa","province":"Quezon","association":"Villahermosa Irrigation-Farmers Association","lat":"13.886108","municipality":"Lopez"},{"association":"Bacungan Farmers Association","barangay":"Bacungan","province":"Quezon","municipality":"Lopez","lat":"13.911294","lon":"122.277098"},{"lon":"122.323657","barangay":"Rizal Rural","lat":"13.899892","province":"Quezon","municipality":"Lopez","association":"Rural Rizal Farmers Association"},{"lat":"13.8411973","lon":"122.2420901","association":"San Pedro Farmers Association","barangay":"San Pedro","municipality":"Lopez","province":"Quezon"},{"lat":"13.2917","barangay":"Casay","municipality":"San Francisco","lon":"122.5461","association":"Casay Farmers Association","province":"Quezon"},{"association":"Huyon-uyon Farmers Association","lat":"13.254","municipality":"San Francisco","barangay":"Huyon-uyon","province":"Quezon","lon":"122.5929"},{"lat":"13.4143","municipality":"San Francisco","lon":"122.5442","association":"Tayuman Upland Farmers Association","province":"Quezon","barangay":"Ilayang  Tayuman"},{"municipality":"San Francisco","barangay":"Mabunga","province":"Quezon","lon":"122.6069","lat":"13.3092","association":"Mabunga Malumbang Corn Farmers Association"},{"province":"Quezon","barangay":"Sto Ni�o","lat":"13.2965","lon":"122.5855","association":"Sto. Ni�o Farmers Association","municipality":"San Francisco"},{"lon":"121.879715","association":"Taluong-Quidanum Coconut Farmers Association and Taluong-Quidanum Irrigator Association","province":"Quezon","municipality":"Polillo","lat":"14.847597","barangay":"Taluong"},{"barangay":"Libjo","lat":"14.704312","province":"Quezon","municipality":"Polillo","lon":"121.939827","association":"Polillo Banadero-Libjo ARC Multipurpose Cooperative"},{"lon":"122.041971","lat":"14.975356","association":"Carlagan Banana Growers Association and Carlagan Livestock Growers Association","barangay":"Carlagan","municipality":"Burdeos","province":"Quezon"},{"barangay":"Poblacion","association":"Mabuhay-Bokal Budeos Irrigators Association, INC.","lon":"121.97646","province":"Quezon","lat":"14.84534","municipality":"Burdeos"}],"provincesMunicipalities":[{"disabled":false,"id":0,"municipalities":[{"id":0,"label":"Agoncillo","disabled":false},{"id":1,"disabled":false,"label":"Alitagtag"},{"label":"Balayan","id":2,"disabled":false},{"label":"Balete","disabled":false,"id":3},{"label":"Batangas City","disabled":false,"id":4},{"label":"Bauan","id":5,"disabled":false},{"id":6,"disabled":false,"label":"Calaca"},{"id":7,"label":"Calatagan","disabled":false},{"id":8,"label":"Cuenca","disabled":false},{"disabled":false,"label":"Ibaan","id":9},{"disabled":false,"label":"Laurel","id":10},{"id":11,"disabled":false,"label":"Lemery"},{"disabled":false,"id":12,"label":"Lian"},{"label":"Lipa City","disabled":false,"id":13},{"disabled":false,"label":"Lobo","id":14},{"disabled":false,"label":"Mabini","id":15},{"id":16,"label":"Malvar","disabled":false},{"disabled":false,"label":"Mataas Na Kahoy","id":17},{"label":"Nasugbu","disabled":false,"id":18},{"disabled":false,"id":19,"label":"Padre Garcia"},{"id":20,"disabled":false,"label":"Rosario"},{"label":"San Jose","disabled":false,"id":21},{"id":22,"label":"San Juan","disabled":false},{"disabled":false,"label":"San Luis","id":23},{"id":24,"disabled":false,"label":"San Nicolas"},{"label":"San Pascual","disabled":false,"id":25},{"disabled":false,"id":26,"label":"Santa Teresita"},{"id":27,"disabled":false,"label":"Santo Tomas"},{"id":28,"disabled":false,"label":"Taal"},{"label":"Talisay","disabled":false,"id":29},{"disabled":false,"label":"Tanauan City","id":30},{"disabled":false,"id":31,"label":"Taysan"},{"label":"Tingloy","id":32,"disabled":false},{"id":33,"disabled":false,"label":"Tuy"}],"label":"Batangas"},{"label":"Cavite","id":1,"municipalities":[{"label":"Alfonso","id":0,"disabled":false},{"id":1,"label":"Amadeo","disabled":false},{"id":2,"disabled":false,"label":"Bacoor"},{"label":"Carmona","disabled":false,"id":3},{"label":"Dasmariñas","disabled":false,"id":4},{"label":"General Emilio Aguinaldo","id":5,"disabled":false},{"label":"General Mariano Alvarez","id":6,"disabled":false},{"label":"General Trias","disabled":false,"id":7},{"disabled":false,"id":8,"label":"Imus"},{"disabled":false,"id":9,"label":"Indang"},{"disabled":false,"id":10,"label":"Kawit"},{"label":"Magallanes","id":11,"disabled":false},{"label":"Maragondon","id":12,"disabled":false},{"disabled":false,"id":13,"label":"Mendez"},{"disabled":false,"id":14,"label":"Naic"},{"disabled":false,"id":15,"label":"Rosario"},{"id":16,"label":"Silang","disabled":false},{"id":17,"disabled":false,"label":"Tagaytay City"},{"label":"Tanza","id":18,"disabled":false},{"disabled":false,"id":19,"label":"Ternate"},{"id":20,"label":"Trece Martires City","disabled":false}],"disabled":false},{"label":"Laguna","id":2,"municipalities":[{"label":"Alaminos","id":0,"disabled":false},{"disabled":false,"label":"Bay","id":1},{"id":2,"disabled":false,"label":"Biñan"},{"disabled":false,"id":3,"label":"Cabuyao"},{"id":4,"label":"Calamba City","disabled":false},{"id":5,"label":"Calauan","disabled":false},{"disabled":false,"label":"Cavinti","id":6},{"id":7,"label":"Famy","disabled":false},{"id":8,"disabled":false,"label":"Kalayaan"},{"label":"Liliw","disabled":false,"id":9},{"disabled":false,"id":10,"label":"Los Baños"},{"id":11,"label":"Luisiana","disabled":false},{"disabled":false,"label":"Lumban","id":12},{"disabled":false,"label":"Mabitac","id":13},{"label":"Magdalena","id":14,"disabled":false},{"disabled":false,"label":"Majayjay","id":15},{"label":"Nagcarlan","disabled":false,"id":16},{"disabled":false,"label":"Paete","id":17},{"id":18,"disabled":false,"label":"Pagsanjan"},{"label":"Pakil","disabled":false,"id":19},{"id":20,"disabled":false,"label":"Pangil"},{"label":"Pila","id":21,"disabled":false},{"id":22,"label":"Rizal","disabled":false},{"id":23,"disabled":false,"label":"San Pablo City"},{"label":"San Pedro","disabled":false,"id":24},{"id":25,"disabled":false,"label":"Santa Cruz"},{"disabled":false,"id":26,"label":"Santa Maria"},{"id":27,"disabled":false,"label":"Santa Rosa City"},{"disabled":false,"id":28,"label":"Siniloan"},{"disabled":false,"id":29,"label":"Victoria"}],"disabled":false},{"municipalities":[{"label":"Agdangan","id":0,"disabled":false},{"label":"Alabat","disabled":false,"id":1},{"label":"Atimonan","id":2,"disabled":false},{"label":"Buenavista","disabled":false,"id":3},{"disabled":false,"id":4,"label":"Burdeos"},{"id":5,"disabled":false,"label":"Calauag"},{"disabled":false,"label":"Candelaria","id":6},{"label":"Catanauan","id":7,"disabled":false},{"label":"Dolores","id":8,"disabled":false},{"id":9,"disabled":false,"label":"General Luna"},{"id":10,"label":"General Nakar","disabled":false},{"disabled":false,"id":11,"label":"Guinayangan"},{"id":12,"disabled":false,"label":"Gumaca"},{"label":"Infanta","id":13,"disabled":false},{"id":14,"label":"Jomalig","disabled":false},{"id":15,"disabled":false,"label":"Lopez"},{"id":16,"label":"Lucban","disabled":false},{"disabled":false,"id":17,"label":"Lucena City"},{"label":"Macalelon","id":18,"disabled":false},{"id":19,"label":"Mauban","disabled":false},{"disabled":false,"id":20,"label":"Mulanay"},{"disabled":false,"label":"Padre Burgos","id":21},{"label":"Pagbilao","disabled":false,"id":22},{"label":"Panukulan","disabled":false,"id":23},{"label":"Patnanungan","id":24,"disabled":false},{"label":"Perez","id":25,"disabled":false},{"label":"Pitogo","disabled":false,"id":26},{"disabled":false,"id":27,"label":"Plaridel"},{"label":"Polillo","id":28,"disabled":false},{"id":29,"disabled":false,"label":"Quezon"},{"id":30,"label":"Real","disabled":false},{"disabled":false,"label":"Sampaloc","id":31},{"disabled":false,"id":32,"label":"San Andres"},{"disabled":false,"label":"San Antonio","id":33},{"id":34,"disabled":false,"label":"San Francisco"},{"label":"San Narciso","disabled":false,"id":35},{"label":"Sariaya","id":36,"disabled":false},{"disabled":false,"label":"Tagkawayan","id":37},{"label":"Tayabas City","disabled":false,"id":38},{"label":"Tiaong","id":39,"disabled":false},{"label":"Unisan","disabled":false,"id":40}],"disabled":false,"id":3,"label":"Quezon"},{"label":"Rizal","municipalities":[{"label":"Angono","disabled":false,"id":0},{"disabled":false,"id":1,"label":"Antipolo City"},{"label":"Baras","disabled":false,"id":2},{"disabled":false,"id":3,"label":"Binangonan"},{"disabled":false,"id":4,"label":"Cainta"},{"label":"Cardona","disabled":false,"id":5},{"disabled":false,"label":"Jala-Jala","id":6},{"id":7,"disabled":false,"label":"Morong"},{"disabled":false,"id":8,"label":"Pililla"},{"disabled":false,"id":9,"label":"Rodriguez"},{"label":"San Mateo","id":10,"disabled":false},{"disabled":false,"label":"Tanay","id":11},{"label":"Taytay","id":12,"disabled":false},{"label":"Teresa","id":13,"disabled":false}],"disabled":false,"id":4}],"media":{"description":"Agro-Climatic Advisory Portal-Calabarzon (ACAP-CALABARZON) serves as a centralized hub for the development of Climate Information Services (CIS) in the Calabarzon Region. It contains relevant weather and climate information which can be used in developing tailored advisories and crop recommendations.","url":"https://firebasestorage.googleapis.com/v0/b/acap-rfo4a-prod.appspot.com/o/images%2Fog_home_1200.png?alt=media&token=85ed8c98-6872-496e-a78a-ed4868ef91b2","path":"https://acap-calabarzon.github.io"}},"__N_SSG":true}